{
  "brewery": [
    {
      "id": "1323-r-and-d-raleigh",
      "name": "1323 R & D",
      "brewery_type": "micro",
      "street": "1323 Capital Blvd 1323 R and D",
      "address_2": null,
      "address_3": null,
      "city": "Raleigh",
      "state": "North Carolina",
      "county_province": null,
      "postal_code": "27603-1117",
      "country": "United States",
      "longitude": null,
      "latitude": null,
      "phone": "9199775654",
      "website_url": "http://www.1323rnd.com",
      "updated_at": "2022-08-20T02:56:08.975Z",
      "created_at": "2022-08-20T02:56:08.975Z",
      "comment": "yummy"
    },
    {
      "id": "big-boss-brewing-co-raleigh",
      "name": "Big Boss Brewing Co",
      "brewery_type": "micro",
      "street": "1249 Wicker Dr Ste A",
      "address_2": null,
      "address_3": null,
      "city": "Raleigh",
      "state": "North Carolina",
      "county_province": null,
      "postal_code": "27604-1683",
      "country": "United States",
      "longitude": null,
      "latitude": null,
      "phone": "9198340045",
      "website_url": "http://www.bigbossbrewing.com",
      "updated_at": "2022-08-20T02:56:08.975Z",
      "created_at": "2022-08-20T02:56:08.975Z"
    },
    {
      "id": "boylan-bridge-brewpub-raleigh",
      "name": "Boylan Bridge Brewpub",
      "brewery_type": "brewpub",
      "street": "201 S BOYLAN AVE",
      "address_2": null,
      "address_3": null,
      "city": "Raleigh",
      "state": "North Carolina",
      "county_province": null,
      "postal_code": "27603-1803",
      "country": "United States",
      "longitude": "-78.649139",
      "latitude": "35.778465",
      "phone": "9198038927",
      "website_url": "http://www.boylanbridge.com",
      "updated_at": "2022-08-20T02:56:08.975Z",
      "created_at": "2022-08-20T02:56:08.975Z"
    },
    {
      "id": "brewery-bhavana-raleigh",
      "name": "Brewery Bhavana",
      "brewery_type": "micro",
      "street": "218 S Blount St",
      "address_2": null,
      "address_3": null,
      "city": "Raleigh",
      "state": "North Carolina",
      "county_province": null,
      "postal_code": "27601",
      "country": "United States",
      "longitude": "-78.6366938",
      "latitude": "35.77786298",
      "phone": "4154701370",
      "website_url": "http://brewerybhavana.com",
      "updated_at": "2022-08-20T02:56:08.975Z",
      "created_at": "2022-08-20T02:56:08.975Z"
    },
    {
      "id": "brices-brewing-company-raleigh",
      "name": "Brice's Brewing Company",
      "brewery_type": "micro",
      "street": "1822 Garner Station Blvd",
      "address_2": null,
      "address_3": null,
      "city": "Raleigh",
      "state": "North Carolina",
      "county_province": null,
      "postal_code": "27603-3643",
      "country": "United States",
      "longitude": "-78.65871577",
      "latitude": "35.72493108",
      "phone": "9842001803",
      "website_url": "http://www.bricesbrewing.com",
      "updated_at": "2022-08-20T02:56:08.975Z",
      "created_at": "2022-08-20T02:56:08.975Z"
    },
    {
      "id": "clouds-brewing-raleigh",
      "name": "Clouds Brewing",
      "brewery_type": "micro",
      "street": "1233 Front St Ste E",
      "address_2": null,
      "address_3": null,
      "city": "Raleigh",
      "state": "North Carolina",
      "county_province": null,
      "postal_code": "27609-7534",
      "country": "United States",
      "longitude": null,
      "latitude": null,
      "phone": "9197474863",
      "website_url": "http://www.cloudsbrewing.com",
      "updated_at": "2022-08-20T02:56:08.975Z",
      "created_at": "2022-08-20T02:56:08.975Z"
    },
    {
      "id": "collection-brewing-company-raleigh",
      "name": "Collection Brewing Company",
      "brewery_type": "planning",
      "street": null,
      "address_2": null,
      "address_3": null,
      "city": "Raleigh",
      "state": "North Carolina",
      "county_province": null,
      "postal_code": "27614-8519",
      "country": "United States",
      "longitude": null,
      "latitude": null,
      "phone": null,
      "website_url": null,
      "updated_at": "2022-08-20T02:56:08.975Z",
      "created_at": "2022-08-20T02:56:08.975Z"
    },
    {
      "id": "compass-rose-raleigh",
      "name": "Compass Rose",
      "brewery_type": "micro",
      "street": "3201 Northside Dr, Ste. 101",
      "address_2": null,
      "address_3": null,
      "city": "Raleigh",
      "state": "North Carolina",
      "county_province": null,
      "postal_code": "27615-4126",
      "country": "United States",
      "longitude": "-78.582171",
      "latitude": "35.883411",
      "phone": "9198755683",
      "website_url": "http://www.compassrosebrewery.com",
      "updated_at": "2022-08-20T02:56:08.975Z",
      "created_at": "2022-08-20T02:56:08.975Z"
    },
    {
      "id": "crank-arm-brewing-co-raleigh",
      "name": "Crank Arm Brewing Co",
      "brewery_type": "micro",
      "street": "319 W Davie St",
      "address_2": null,
      "address_3": null,
      "city": "Raleigh",
      "state": "North Carolina",
      "county_province": null,
      "postal_code": "27601-1718",
      "country": "United States",
      "longitude": "-78.64405",
      "latitude": "35.7756043",
      "phone": null,
      "website_url": "http://www.crankarmbrewing.com",
      "updated_at": "2022-08-20T02:56:08.975Z",
      "created_at": "2022-08-20T02:56:08.975Z"
    },
    {
      "id": "funguys-brewery-raleigh",
      "name": "Funguys Brewery",
      "brewery_type": "micro",
      "street": "2408 Paula St",
      "address_2": null,
      "address_3": null,
      "city": "Raleigh",
      "state": "North Carolina",
      "county_province": null,
      "postal_code": "27608-1706",
      "country": "United States",
      "longitude": "-78.62513369",
      "latitude": "35.81309826",
      "phone": null,
      "website_url": "http://www.funguysbrewing.com",
      "updated_at": "2022-08-20T02:56:08.975Z",
      "created_at": "2022-08-20T02:56:08.975Z"
    },
    {
      "id": "gizmo-brew-works-raleigh",
      "name": "Gizmo Brew Works",
      "brewery_type": "micro",
      "street": "5907 Triangle Dr",
      "address_2": null,
      "address_3": null,
      "city": "Raleigh",
      "state": "North Carolina",
      "county_province": null,
      "postal_code": "27617-4742",
      "country": "United States",
      "longitude": "-78.74513578",
      "latitude": "35.89611719",
      "phone": "9197822099",
      "website_url": "http://www.gizmobrewworks.com",
      "updated_at": "2022-08-20T02:56:08.975Z",
      "created_at": "2022-08-20T02:56:08.975Z"
    },
    {
      "id": "little-city-brewing-co-raleigh",
      "name": "Little City Brewing Co.",
      "brewery_type": "micro",
      "street": "400 W North St Ste 120",
      "address_2": null,
      "address_3": null,
      "city": "Raleigh",
      "state": "North Carolina",
      "county_province": null,
      "postal_code": "27603-1570",
      "country": "United States",
      "longitude": null,
      "latitude": null,
      "phone": "9195027155",
      "website_url": "http://Www.thelocalicon.com/little-city",
      "updated_at": "2022-08-20T02:56:08.975Z",
      "created_at": "2022-08-20T02:56:08.975Z"
    },
    {
      "id": "lonerider-brewing-co-raleigh",
      "name": "Lonerider Brewing Co",
      "brewery_type": "regional",
      "street": "8816 Gulf Ct Ste 100",
      "address_2": null,
      "address_3": null,
      "city": "Raleigh",
      "state": "North Carolina",
      "county_province": null,
      "postal_code": "27617-4628",
      "country": "United States",
      "longitude": "-78.76254395",
      "latitude": "35.90357415",
      "phone": "9194428004",
      "website_url": "http://www.loneriderbeer.com",
      "updated_at": "2022-08-20T02:56:08.975Z",
      "created_at": "2022-08-20T02:56:08.975Z"
    },
    {
      "id": "lynnwood-brewing-concern-raleigh-1",
      "name": "Lynnwood Brewing Concern",
      "brewery_type": "brewpub",
      "street": "4821 Grove Barton Rd",
      "address_2": null,
      "address_3": null,
      "city": "Raleigh",
      "state": "North Carolina",
      "county_province": null,
      "postal_code": "27613-1900",
      "country": "United States",
      "longitude": "-78.71623989",
      "latitude": "35.87060368",
      "phone": "9197850043",
      "website_url": "http://www.lynnwoodbrewing.beer",
      "updated_at": "2022-08-20T02:56:08.975Z",
      "created_at": "2022-08-20T02:56:08.975Z"
    },
    {
      "id": "lynnwood-brewing-concern-raleigh-2",
      "name": "Lynnwood Brewing Concern",
      "brewery_type": "micro",
      "street": "1053 E Whitaker Mill Rd Ste 101",
      "address_2": null,
      "address_3": null,
      "city": "Raleigh",
      "state": "North Carolina",
      "county_province": null,
      "postal_code": "27604-5305",
      "country": "United States",
      "longitude": "-78.62430807",
      "latitude": "35.80788061",
      "phone": "5207779456",
      "website_url": null,
      "updated_at": "2022-08-20T02:56:08.975Z",
      "created_at": "2022-08-20T02:56:08.975Z"
    },
    {
      "id": "nc-state-brewery-raleigh",
      "name": "NC State Brewery",
      "brewery_type": "micro",
      "street": "400 Dan Allen Drive Campus Box 7624",
      "address_2": null,
      "address_3": null,
      "city": "Raleigh",
      "state": "North Carolina",
      "county_province": null,
      "postal_code": "27695-0001",
      "country": "United States",
      "longitude": null,
      "latitude": null,
      "phone": "9195130802",
      "website_url": "http://www.fbns.ncsu.edu/Sheppard/",
      "updated_at": "2022-08-20T02:56:08.975Z",
      "created_at": "2022-08-20T02:56:08.975Z"
    },
    {
      "id": "neuse-river-brewing-company-raleigh",
      "name": "Neuse River Brewing Company",
      "brewery_type": "micro",
      "street": "518 Pershing Rd",
      "address_2": null,
      "address_3": null,
      "city": "Raleigh",
      "state": "North Carolina",
      "county_province": null,
      "postal_code": "27608-2624",
      "country": "United States",
      "longitude": "-78.63345205",
      "latitude": "35.8045083",
      "phone": "9842328479",
      "website_url": "http://www.neuseriverbrewing.com",
      "updated_at": "2022-08-20T02:56:08.975Z",
      "created_at": "2022-08-20T02:56:08.975Z"
    },
    {
      "id": "nickelpoint-brewing-co-raleigh",
      "name": "Nickelpoint Brewing Co",
      "brewery_type": "micro",
      "street": "506 Pershing Rd",
      "address_2": null,
      "address_3": null,
      "city": "Raleigh",
      "state": "North Carolina",
      "county_province": null,
      "postal_code": "27608-2624",
      "country": "United States",
      "longitude": "-78.63369468",
      "latitude": "35.8045808",
      "phone": "9199165961",
      "website_url": "http://www.nickelpointbrewing.com",
      "updated_at": "2022-08-20T02:56:08.975Z",
      "created_at": "2022-08-20T02:56:08.975Z"
    },
    {
      "id": "oak-and-dagger-public-house-raleigh",
      "name": "Oak and Dagger Public House",
      "brewery_type": "brewpub",
      "street": "18 Seaboard Ave Ste 150",
      "address_2": null,
      "address_3": null,
      "city": "Raleigh",
      "state": "North Carolina",
      "county_province": null,
      "postal_code": "27604-8010",
      "country": "United States",
      "longitude": null,
      "latitude": null,
      "phone": "9199459382",
      "website_url": "http://www.oakanddagger.beer",
      "updated_at": "2022-08-20T02:56:08.975Z",
      "created_at": "2022-08-20T02:56:08.975Z"
    },
    {
      "id": "raleigh-brewing-company-raleigh",
      "name": "Raleigh Brewing Company",
      "brewery_type": "micro",
      "street": "3709 Neil St",
      "address_2": null,
      "address_3": null,
      "city": "Raleigh",
      "state": "North Carolina",
      "county_province": null,
      "postal_code": "27607-5415",
      "country": "United States",
      "longitude": "-78.6875149",
      "latitude": "35.7931167",
      "phone": "9194009086",
      "website_url": "http://www.raleighbrewingcompany.com",
      "updated_at": "2022-08-20T02:56:08.975Z",
      "created_at": "2022-08-20T02:56:08.975Z"
    },
    {
      "id": "sub-noir-brewing-company-raleigh",
      "name": "Sub Noir Brewing Company",
      "brewery_type": "micro",
      "street": "2039 Progress Ct",
      "address_2": null,
      "address_3": null,
      "city": "Raleigh",
      "state": "North Carolina",
      "county_province": null,
      "postal_code": "27608-2761",
      "country": "United States",
      "longitude": "-78.6231748",
      "latitude": "35.8091103",
      "phone": "9194802337",
      "website_url": "http://www.subnoir.net",
      "updated_at": "2022-08-20T02:56:08.975Z",
      "created_at": "2022-08-20T02:56:08.975Z"
    },
    {
      "id": "tobacco-road-brewery-raleigh",
      "name": "Tobacco Road Brewery",
      "brewery_type": "brewpub",
      "street": "505 W Jones St",
      "address_2": null,
      "address_3": null,
      "city": "Raleigh",
      "state": "North Carolina",
      "county_province": null,
      "postal_code": "27603-1428",
      "country": "United States",
      "longitude": "-78.64598965",
      "latitude": "35.78269753",
      "phone": "9193018793",
      "website_url": "http://www.tobaccoroadsportscafe.com",
      "updated_at": "2022-08-20T02:56:08.975Z",
      "created_at": "2022-08-20T02:56:08.975Z"
    },
    {
      "id": "trophy-brewing-company-raleigh",
      "name": "Trophy Brewing Company",
      "brewery_type": "micro",
      "street": "656 Maywood Ave",
      "address_2": null,
      "address_3": null,
      "city": "Raleigh",
      "state": "North Carolina",
      "county_province": null,
      "postal_code": "27603-2340",
      "country": "United States",
      "longitude": "-78.65744714",
      "latitude": "35.76136262",
      "phone": "9198034849",
      "website_url": "http://www.trophybrewing.com",
      "updated_at": "2022-08-20T02:56:08.975Z",
      "created_at": "2022-08-20T02:56:08.975Z"
    },
    [],
    [],
    [],
    [],
    [],
    [],
    [],
    [],
    [],
    [],
    []
  ]
}